{
  "type": "FeatureCollection",
  "features": [
    {
      "type": "Feature",
      "properties": {
        "id": 0,
        "name": "Winifred Nelson",
        "age": 49,
        "company": "Quantela"
      },
      "geometry": {
        "type": "Point",
        "coordinates": [
          78.4842,
          17.4821
        ]
      }
    },
    {
      "type": "Feature",
      "properties": {
        "id": 1,
        "name": "Kerry Parrish",
        "age": 50,
        "company": "Quantela"
      },
      "geometry": {
        "type": "Point",
        "coordinates": [
          78.5372,
          17.4174
        ]
      }
    },
    {
      "type": "Feature",
      "properties": {
        "id": 2,
        "name": "Elisa Hensley",
        "age": 44,
        "company": "Quantela"
      },
      "geometry": {
        "type": "Point",
        "coordinates": [
          78.5073,
          17.3936
        ]
      }
    },
    {
      "type": "Feature",
      "properties": {
        "id": 3,
        "name": "Christine Gentry",
        "age": 48,
        "company": "Quantela"
      },
      "geometry": {
        "type": "Point",
        "coordinates": [
          78.4915,
          17.4567
        ]
      }
    },
    {
      "type": "Feature",
      "properties": {
        "id": 4,
        "name": "Bird Nolan",
        "age": 40,
        "company": "Quantela"
      },
      "geometry": {
        "type": "Point",
        "coordinates": [
          78.5668,
          17.4733
        ]
      }
    },
    {
      "type": "Feature",
      "properties": {
        "id": 5,
        "name": "Sharron Clemons",
        "age": 45,
        "company": "Quantela"
      },
      "geometry": {
        "type": "Point",
        "coordinates": [
          78.5472,
          17.4281
        ]
      }
    },
    {
      "type": "Feature",
      "properties": {
        "id": 6,
        "name": "Collier Morales",
        "age": 46,
        "company": "Quantela"
      },
      "geometry": {
        "type": "Point",
        "coordinates": [
          78.5134,
          17.4869
        ]
      }
    },
    {
      "type": "Feature",
      "properties": {
        "id": 7,
        "name": "Dolores Santiago",
        "age": 50,
        "company": "Quantela"
      },
      "geometry": {
        "type": "Point",
        "coordinates": [
          78.4806,
          17.4652
        ]
      }
    },
    {
      "type": "Feature",
      "properties": {
        "id": 8,
        "name": "Dena Schwartz",
        "age": 48,
        "company": "Quantela"
      },
      "geometry": {
        "type": "Point",
        "coordinates": [
          78.5013,
          17.4559
        ]
      }
    },
    {
      "type": "Feature",
      "properties": {
        "id": 9,
        "name": "Marlene Woods",
        "age": 41,
        "company": "Quantela"
      },
      "geometry": {
        "type": "Point",
        "coordinates": [
          78.4922,
          17.4818
        ]
      }
    },
    {
      "type": "Feature",
      "properties": {
        "id": 10,
        "name": "Ida Ramsey",
        "age": 46,
        "company": "Quantela"
      },
      "geometry": {
        "type": "Point",
        "coordinates": [
          78.485,
          17.4016
        ]
      }
    },
    {
      "type": "Feature",
      "properties": {
        "id": 11,
        "name": "Cherie Chang",
        "age": 43,
        "company": "Quantela"
      },
      "geometry": {
        "type": "Point",
        "coordinates": [
          78.5288,
          17.4327
        ]
      }
    },
    {
      "type": "Feature",
      "properties": {
        "id": 12,
        "name": "Wright Rasmussen",
        "age": 44,
        "company": "Quantela"
      },
      "geometry": {
        "type": "Point",
        "coordinates": [
          78.5246,
          17.4776
        ]
      }
    },
    {
      "type": "Feature",
      "properties": {
        "id": 13,
        "name": "Corinne Mcfadden",
        "age": 48,
        "company": "Quantela"
      },
      "geometry": {
        "type": "Point",
        "coordinates": [
          78.5512,
          17.4649
        ]
      }
    },
    {
      "type": "Feature",
      "properties": {
        "id": 14,
        "name": "Alicia Hayden",
        "age": 43,
        "company": "Quantela"
      },
      "geometry": {
        "type": "Point",
        "coordinates": [
          78.565,
          17.4728
        ]
      }
    },
    {
      "type": "Feature",
      "properties": {
        "id": 15,
        "name": "Monica Fletcher",
        "age": 50,
        "company": "Quantela"
      },
      "geometry": {
        "type": "Point",
        "coordinates": [
          78.5718,
          17.4608
        ]
      }
    },
    {
      "type": "Feature",
      "properties": {
        "id": 16,
        "name": "Marks Mccoy",
        "age": 47,
        "company": "Quantela"
      },
      "geometry": {
        "type": "Point",
        "coordinates": [
          78.5344,
          17.3963
        ]
      }
    },
    {
      "type": "Feature",
      "properties": {
        "id": 17,
        "name": "Olivia Weber",
        "age": 45,
        "company": "Quantela"
      },
      "geometry": {
        "type": "Point",
        "coordinates": [
          78.5056,
          17.4476
        ]
      }
    },
    {
      "type": "Feature",
      "properties": {
        "id": 18,
        "name": "Vaughn Whitfield",
        "age": 50,
        "company": "Quantela"
      },
      "geometry": {
        "type": "Point",
        "coordinates": [
          78.5071,
          17.4536
        ]
      }
    },
    {
      "type": "Feature",
      "properties": {
        "id": 19,
        "name": "Bender Terry",
        "age": 42,
        "company": "Quantela"
      },
      "geometry": {
        "type": "Point",
        "coordinates": [
          78.5276,
          17.4003
        ]
      }
    },
    {
      "type": "Feature",
      "properties": {
        "id": 20,
        "name": "Amie Weaver",
        "age": 40,
        "company": "Quantela"
      },
      "geometry": {
        "type": "Point",
        "coordinates": [
          78.5675,
          17.3876
        ]
      }
    },
    {
      "type": "Feature",
      "properties": {
        "id": 21,
        "name": "Christa Hoffman",
        "age": 49,
        "company": "Quantela"
      },
      "geometry": {
        "type": "Point",
        "coordinates": [
          78.5449,
          17.4408
        ]
      }
    },
    {
      "type": "Feature",
      "properties": {
        "id": 22,
        "name": "Lillian Maynard",
        "age": 44,
        "company": "Quantela"
      },
      "geometry": {
        "type": "Point",
        "coordinates": [
          78.5174,
          17.4161
        ]
      }
    },
    {
      "type": "Feature",
      "properties": {
        "id": 23,
        "name": "Heather Baird",
        "age": 45,
        "company": "Quantela"
      },
      "geometry": {
        "type": "Point",
        "coordinates": [
          78.4901,
          17.3893
        ]
      }
    },
    {
      "type": "Feature",
      "properties": {
        "id": 24,
        "name": "Carpenter Moreno",
        "age": 44,
        "company": "Quantela"
      },
      "geometry": {
        "type": "Point",
        "coordinates": [
          78.5855,
          17.4054
        ]
      }
    },
    {
      "type": "Feature",
      "properties": {
        "id": 25,
        "name": "Judy Haynes",
        "age": 42,
        "company": "Quantela"
      },
      "geometry": {
        "type": "Point",
        "coordinates": [
          78.5204,
          17.4624
        ]
      }
    },
    {
      "type": "Feature",
      "properties": {
        "id": 26,
        "name": "Wagner Nixon",
        "age": 43,
        "company": "Quantela"
      },
      "geometry": {
        "type": "Point",
        "coordinates": [
          78.5768,
          17.4005
        ]
      }
    },
    {
      "type": "Feature",
      "properties": {
        "id": 27,
        "name": "Gay Phillips",
        "age": 42,
        "company": "Quantela"
      },
      "geometry": {
        "type": "Point",
        "coordinates": [
          78.5587,
          17.4604
        ]
      }
    },
    {
      "type": "Feature",
      "properties": {
        "id": 28,
        "name": "Kelly Daniel",
        "age": 41,
        "company": "Quantela"
      },
      "geometry": {
        "type": "Point",
        "coordinates": [
          78.5625,
          17.4021
        ]
      }
    },
    {
      "type": "Feature",
      "properties": {
        "id": 29,
        "name": "Lowery Carey",
        "age": 43,
        "company": "Quantela"
      },
      "geometry": {
        "type": "Point",
        "coordinates": [
          78.5036,
          17.4295
        ]
      }
    },
    {
      "type": "Feature",
      "properties": {
        "id": 30,
        "name": "Shauna Levy",
        "age": 44,
        "company": "Quantela"
      },
      "geometry": {
        "type": "Point",
        "coordinates": [
          78.5564,
          17.4718
        ]
      }
    },
    {
      "type": "Feature",
      "properties": {
        "id": 31,
        "name": "Crystal Harrell",
        "age": 46,
        "company": "Quantela"
      },
      "geometry": {
        "type": "Point",
        "coordinates": [
          78.5841,
          17.4125
        ]
      }
    },
    {
      "type": "Feature",
      "properties": {
        "id": 32,
        "name": "Ava Robbins",
        "age": 46,
        "company": "Quantela"
      },
      "geometry": {
        "type": "Point",
        "coordinates": [
          78.5393,
          17.4747
        ]
      }
    },
    {
      "type": "Feature",
      "properties": {
        "id": 33,
        "name": "Leanne Long",
        "age": 42,
        "company": "Quantela"
      },
      "geometry": {
        "type": "Point",
        "coordinates": [
          78.5535,
          17.4207
        ]
      }
    },
    {
      "type": "Feature",
      "properties": {
        "id": 34,
        "name": "Francis Jackson",
        "age": 45,
        "company": "Quantela"
      },
      "geometry": {
        "type": "Point",
        "coordinates": [
          78.4975,
          17.4596
        ]
      }
    },
    {
      "type": "Feature",
      "properties": {
        "id": 35,
        "name": "Murray Mclaughlin",
        "age": 45,
        "company": "Quantela"
      },
      "geometry": {
        "type": "Point",
        "coordinates": [
          78.4865,
          17.3932
        ]
      }
    },
    {
      "type": "Feature",
      "properties": {
        "id": 36,
        "name": "Janna Reynolds",
        "age": 46,
        "company": "Quantela"
      },
      "geometry": {
        "type": "Point",
        "coordinates": [
          78.5898,
          17.3837
        ]
      }
    },
    {
      "type": "Feature",
      "properties": {
        "id": 37,
        "name": "Levine Kemp",
        "age": 48,
        "company": "Quantela"
      },
      "geometry": {
        "type": "Point",
        "coordinates": [
          78.5669,
          17.401
        ]
      }
    },
    {
      "type": "Feature",
      "properties": {
        "id": 38,
        "name": "Helene Nunez",
        "age": 48,
        "company": "Quantela"
      },
      "geometry": {
        "type": "Point",
        "coordinates": [
          78.4932,
          17.3806
        ]
      }
    },
    {
      "type": "Feature",
      "properties": {
        "id": 39,
        "name": "Marguerite Powers",
        "age": 49,
        "company": "Quantela"
      },
      "geometry": {
        "type": "Point",
        "coordinates": [
          78.5039,
          17.4443
        ]
      }
    },
    {
      "type": "Feature",
      "properties": {
        "id": 40,
        "name": "Padilla Barrera",
        "age": 42,
        "company": "Quantela"
      },
      "geometry": {
        "type": "Point",
        "coordinates": [
          78.5424,
          17.4751
        ]
      }
    },
    {
      "type": "Feature",
      "properties": {
        "id": 41,
        "name": "Ethel Page",
        "age": 46,
        "company": "Quantela"
      },
      "geometry": {
        "type": "Point",
        "coordinates": [
          78.5476,
          17.4012
        ]
      }
    },
    {
      "type": "Feature",
      "properties": {
        "id": 42,
        "name": "Beth Walter",
        "age": 49,
        "company": "Quantela"
      },
      "geometry": {
        "type": "Point",
        "coordinates": [
          78.4815,
          17.4742
        ]
      }
    },
    {
      "type": "Feature",
      "properties": {
        "id": 43,
        "name": "Lily Spears",
        "age": 47,
        "company": "Quantela"
      },
      "geometry": {
        "type": "Point",
        "coordinates": [
          78.5829,
          17.4096
        ]
      }
    },
    {
      "type": "Feature",
      "properties": {
        "id": 44,
        "name": "Cathy Mccarthy",
        "age": 45,
        "company": "Quantela"
      },
      "geometry": {
        "type": "Point",
        "coordinates": [
          78.5141,
          17.4493
        ]
      }
    },
    {
      "type": "Feature",
      "properties": {
        "id": 45,
        "name": "Duncan Mcfarland",
        "age": 42,
        "company": "Quantela"
      },
      "geometry": {
        "type": "Point",
        "coordinates": [
          78.485,
          17.441
        ]
      }
    },
    {
      "type": "Feature",
      "properties": {
        "id": 46,
        "name": "Violet Sargent",
        "age": 43,
        "company": "Quantela"
      },
      "geometry": {
        "type": "Point",
        "coordinates": [
          78.5247,
          17.4176
        ]
      }
    },
    {
      "type": "Feature",
      "properties": {
        "id": 47,
        "name": "Araceli Juarez",
        "age": 41,
        "company": "Quantela"
      },
      "geometry": {
        "type": "Point",
        "coordinates": [
          78.5289,
          17.4807
        ]
      }
    },
    {
      "type": "Feature",
      "properties": {
        "id": 48,
        "name": "Annmarie Roy",
        "age": 46,
        "company": "Quantela"
      },
      "geometry": {
        "type": "Point",
        "coordinates": [
          78.5218,
          17.4764
        ]
      }
    },
    {
      "type": "Feature",
      "properties": {
        "id": 49,
        "name": "Hood Patterson",
        "age": 43,
        "company": "Quantela"
      },
      "geometry": {
        "type": "Point",
        "coordinates": [
          78.4866,
          17.438
        ]
      }
    },
    {
      "type": "Feature",
      "properties": {
        "id": 50,
        "name": "Lambert Garner",
        "age": 48,
        "company": "Quantela"
      },
      "geometry": {
        "type": "Point",
        "coordinates": [
          78.5899,
          17.4859
        ]
      }
    },
    {
      "type": "Feature",
      "properties": {
        "id": 51,
        "name": "Peters Valencia",
        "age": 47,
        "company": "Quantela"
      },
      "geometry": {
        "type": "Point",
        "coordinates": [
          78.545,
          17.4816
        ]
      }
    },
    {
      "type": "Feature",
      "properties": {
        "id": 52,
        "name": "Sheena Cruz",
        "age": 40,
        "company": "Quantela"
      },
      "geometry": {
        "type": "Point",
        "coordinates": [
          78.5094,
          17.4233
        ]
      }
    },
    {
      "type": "Feature",
      "properties": {
        "id": 53,
        "name": "Gilbert Sweet",
        "age": 48,
        "company": "Quantela"
      },
      "geometry": {
        "type": "Point",
        "coordinates": [
          78.4988,
          17.4631
        ]
      }
    },
    {
      "type": "Feature",
      "properties": {
        "id": 54,
        "name": "Ora Lucas",
        "age": 48,
        "company": "Quantela"
      },
      "geometry": {
        "type": "Point",
        "coordinates": [
          78.5355,
          17.3832
        ]
      }
    },
    {
      "type": "Feature",
      "properties": {
        "id": 55,
        "name": "Josephine Avery",
        "age": 45,
        "company": "Quantela"
      },
      "geometry": {
        "type": "Point",
        "coordinates": [
          78.5184,
          17.4221
        ]
      }
    },
    {
      "type": "Feature",
      "properties": {
        "id": 56,
        "name": "Guzman Dalton",
        "age": 47,
        "company": "Quantela"
      },
      "geometry": {
        "type": "Point",
        "coordinates": [
          78.5287,
          17.4736
        ]
      }
    },
    {
      "type": "Feature",
      "properties": {
        "id": 57,
        "name": "Daphne Hartman",
        "age": 46,
        "company": "Quantela"
      },
      "geometry": {
        "type": "Point",
        "coordinates": [
          78.5705,
          17.4674
        ]
      }
    },
    {
      "type": "Feature",
      "properties": {
        "id": 58,
        "name": "Geneva Vance",
        "age": 43,
        "company": "Quantela"
      },
      "geometry": {
        "type": "Point",
        "coordinates": [
          78.5431,
          17.3896
        ]
      }
    },
    {
      "type": "Feature",
      "properties": {
        "id": 59,
        "name": "Sheryl Dennis",
        "age": 47,
        "company": "Quantela"
      },
      "geometry": {
        "type": "Point",
        "coordinates": [
          78.5614,
          17.3855
        ]
      }
    },
    {
      "type": "Feature",
      "properties": {
        "id": 60,
        "name": "Caroline Ayers",
        "age": 49,
        "company": "Quantela"
      },
      "geometry": {
        "type": "Point",
        "coordinates": [
          78.5858,
          17.3994
        ]
      }
    },
    {
      "type": "Feature",
      "properties": {
        "id": 61,
        "name": "George Yates",
        "age": 43,
        "company": "Quantela"
      },
      "geometry": {
        "type": "Point",
        "coordinates": [
          78.5566,
          17.4816
        ]
      }
    },
    {
      "type": "Feature",
      "properties": {
        "id": 62,
        "name": "Leta Osborn",
        "age": 47,
        "company": "Quantela"
      },
      "geometry": {
        "type": "Point",
        "coordinates": [
          78.4873,
          17.3904
        ]
      }
    },
    {
      "type": "Feature",
      "properties": {
        "id": 63,
        "name": "Savannah Rowland",
        "age": 44,
        "company": "Quantela"
      },
      "geometry": {
        "type": "Point",
        "coordinates": [
          78.5183,
          17.4347
        ]
      }
    },
    {
      "type": "Feature",
      "properties": {
        "id": 64,
        "name": "Belinda Conrad",
        "age": 40,
        "company": "Quantela"
      },
      "geometry": {
        "type": "Point",
        "coordinates": [
          78.5199,
          17.4476
        ]
      }
    },
    {
      "type": "Feature",
      "properties": {
        "id": 65,
        "name": "Wiggins Malone",
        "age": 43,
        "company": "Quantela"
      },
      "geometry": {
        "type": "Point",
        "coordinates": [
          78.4807,
          17.3821
        ]
      }
    },
    {
      "type": "Feature",
      "properties": {
        "id": 66,
        "name": "Jayne Maldonado",
        "age": 49,
        "company": "Quantela"
      },
      "geometry": {
        "type": "Point",
        "coordinates": [
          78.577,
          17.4549
        ]
      }
    },
    {
      "type": "Feature",
      "properties": {
        "id": 67,
        "name": "Bishop England",
        "age": 41,
        "company": "Quantela"
      },
      "geometry": {
        "type": "Point",
        "coordinates": [
          78.4871,
          17.3883
        ]
      }
    },
    {
      "type": "Feature",
      "properties": {
        "id": 68,
        "name": "Murphy Williamson",
        "age": 43,
        "company": "Quantela"
      },
      "geometry": {
        "type": "Point",
        "coordinates": [
          78.4895,
          17.445
        ]
      }
    },
    {
      "type": "Feature",
      "properties": {
        "id": 69,
        "name": "Ebony Rush",
        "age": 41,
        "company": "Quantela"
      },
      "geometry": {
        "type": "Point",
        "coordinates": [
          78.5768,
          17.4555
        ]
      }
    },
    {
      "type": "Feature",
      "properties": {
        "id": 70,
        "name": "Margret Wells",
        "age": 42,
        "company": "Quantela"
      },
      "geometry": {
        "type": "Point",
        "coordinates": [
          78.5404,
          17.401
        ]
      }
    },
    {
      "type": "Feature",
      "properties": {
        "id": 71,
        "name": "Benjamin Barnes",
        "age": 50,
        "company": "Quantela"
      },
      "geometry": {
        "type": "Point",
        "coordinates": [
          78.509,
          17.4758
        ]
      }
    },
    {
      "type": "Feature",
      "properties": {
        "id": 72,
        "name": "Faith Ferguson",
        "age": 45,
        "company": "Quantela"
      },
      "geometry": {
        "type": "Point",
        "coordinates": [
          78.4909,
          17.426
        ]
      }
    },
    {
      "type": "Feature",
      "properties": {
        "id": 73,
        "name": "Mcdowell Mercer",
        "age": 43,
        "company": "Quantela"
      },
      "geometry": {
        "type": "Point",
        "coordinates": [
          78.5083,
          17.4479
        ]
      }
    },
    {
      "type": "Feature",
      "properties": {
        "id": 74,
        "name": "Parker Mcmahon",
        "age": 50,
        "company": "Quantela"
      },
      "geometry": {
        "type": "Point",
        "coordinates": [
          78.527,
          17.4605
        ]
      }
    },
    {
      "type": "Feature",
      "properties": {
        "id": 75,
        "name": "Tracie Church",
        "age": 48,
        "company": "Quantela"
      },
      "geometry": {
        "type": "Point",
        "coordinates": [
          78.5622,
          17.3986
        ]
      }
    },
    {
      "type": "Feature",
      "properties": {
        "id": 76,
        "name": "Corrine Shields",
        "age": 47,
        "company": "Quantela"
      },
      "geometry": {
        "type": "Point",
        "coordinates": [
          78.561,
          17.459
        ]
      }
    },
    {
      "type": "Feature",
      "properties": {
        "id": 77,
        "name": "Hope Mckee",
        "age": 47,
        "company": "Quantela"
      },
      "geometry": {
        "type": "Point",
        "coordinates": [
          78.5574,
          17.3954
        ]
      }
    },
    {
      "type": "Feature",
      "properties": {
        "id": 78,
        "name": "Morrison Alford",
        "age": 49,
        "company": "Quantela"
      },
      "geometry": {
        "type": "Point",
        "coordinates": [
          78.4808,
          17.4683
        ]
      }
    },
    {
      "type": "Feature",
      "properties": {
        "id": 79,
        "name": "Gardner Tanner",
        "age": 40,
        "company": "Quantela"
      },
      "geometry": {
        "type": "Point",
        "coordinates": [
          78.482,
          17.418
        ]
      }
    },
    {
      "type": "Feature",
      "properties": {
        "id": 80,
        "name": "Liza Burris",
        "age": 40,
        "company": "Quantela"
      },
      "geometry": {
        "type": "Point",
        "coordinates": [
          78.5339,
          17.4578
        ]
      }
    },
    {
      "type": "Feature",
      "properties": {
        "id": 81,
        "name": "Whitley Blankenship",
        "age": 50,
        "company": "Quantela"
      },
      "geometry": {
        "type": "Point",
        "coordinates": [
          78.5741,
          17.3935
        ]
      }
    },
    {
      "type": "Feature",
      "properties": {
        "id": 82,
        "name": "Hyde Hood",
        "age": 43,
        "company": "Quantela"
      },
      "geometry": {
        "type": "Point",
        "coordinates": [
          78.5796,
          17.3931
        ]
      }
    },
    {
      "type": "Feature",
      "properties": {
        "id": 83,
        "name": "Katie Francis",
        "age": 50,
        "company": "Quantela"
      },
      "geometry": {
        "type": "Point",
        "coordinates": [
          78.5397,
          17.4523
        ]
      }
    },
    {
      "type": "Feature",
      "properties": {
        "id": 84,
        "name": "Johnnie Hopper",
        "age": 45,
        "company": "Quantela"
      },
      "geometry": {
        "type": "Point",
        "coordinates": [
          78.5388,
          17.4828
        ]
      }
    },
    {
      "type": "Feature",
      "properties": {
        "id": 85,
        "name": "Harrison Higgins",
        "age": 45,
        "company": "Quantela"
      },
      "geometry": {
        "type": "Point",
        "coordinates": [
          78.5818,
          17.4353
        ]
      }
    },
    {
      "type": "Feature",
      "properties": {
        "id": 86,
        "name": "Ashlee Norton",
        "age": 47,
        "company": "Quantela"
      },
      "geometry": {
        "type": "Point",
        "coordinates": [
          78.549,
          17.44
        ]
      }
    },
    {
      "type": "Feature",
      "properties": {
        "id": 87,
        "name": "Francis Landry",
        "age": 40,
        "company": "Quantela"
      },
      "geometry": {
        "type": "Point",
        "coordinates": [
          78.5055,
          17.4804
        ]
      }
    },
    {
      "type": "Feature",
      "properties": {
        "id": 88,
        "name": "Jordan Massey",
        "age": 48,
        "company": "Quantela"
      },
      "geometry": {
        "type": "Point",
        "coordinates": [
          78.5142,
          17.4458
        ]
      }
    },
    {
      "type": "Feature",
      "properties": {
        "id": 89,
        "name": "Sullivan Kelley",
        "age": 47,
        "company": "Quantela"
      },
      "geometry": {
        "type": "Point",
        "coordinates": [
          78.5799,
          17.4696
        ]
      }
    },
    {
      "type": "Feature",
      "properties": {
        "id": 90,
        "name": "Terry Vasquez",
        "age": 40,
        "company": "Quantela"
      },
      "geometry": {
        "type": "Point",
        "coordinates": [
          78.5593,
          17.4334
        ]
      }
    },
    {
      "type": "Feature",
      "properties": {
        "id": 91,
        "name": "Winters Dodson",
        "age": 43,
        "company": "Quantela"
      },
      "geometry": {
        "type": "Point",
        "coordinates": [
          78.5231,
          17.4891
        ]
      }
    },
    {
      "type": "Feature",
      "properties": {
        "id": 92,
        "name": "Gallagher Beck",
        "age": 48,
        "company": "Quantela"
      },
      "geometry": {
        "type": "Point",
        "coordinates": [
          78.55,
          17.3809
        ]
      }
    },
    {
      "type": "Feature",
      "properties": {
        "id": 93,
        "name": "Trevino Kerr",
        "age": 50,
        "company": "Quantela"
      },
      "geometry": {
        "type": "Point",
        "coordinates": [
          78.5254,
          17.4516
        ]
      }
    },
    {
      "type": "Feature",
      "properties": {
        "id": 94,
        "name": "Kinney Cooke",
        "age": 43,
        "company": "Quantela"
      },
      "geometry": {
        "type": "Point",
        "coordinates": [
          78.5638,
          17.3825
        ]
      }
    },
    {
      "type": "Feature",
      "properties": {
        "id": 95,
        "name": "Dorthy Wilkerson",
        "age": 42,
        "company": "Quantela"
      },
      "geometry": {
        "type": "Point",
        "coordinates": [
          78.5777,
          17.4769
        ]
      }
    },
    {
      "type": "Feature",
      "properties": {
        "id": 96,
        "name": "Hebert Cleveland",
        "age": 44,
        "company": "Quantela"
      },
      "geometry": {
        "type": "Point",
        "coordinates": [
          78.5343,
          17.4612
        ]
      }
    },
    {
      "type": "Feature",
      "properties": {
        "id": 97,
        "name": "Adela Romero",
        "age": 45,
        "company": "Quantela"
      },
      "geometry": {
        "type": "Point",
        "coordinates": [
          78.5227,
          17.4149
        ]
      }
    },
    {
      "type": "Feature",
      "properties": {
        "id": 98,
        "name": "Mack Keith",
        "age": 41,
        "company": "Quantela"
      },
      "geometry": {
        "type": "Point",
        "coordinates": [
          78.5086,
          17.447
        ]
      }
    },
    {
      "type": "Feature",
      "properties": {
        "id": 99,
        "name": "Iris Jarvis",
        "age": 41,
        "company": "Quantela"
      },
      "geometry": {
        "type": "Point",
        "coordinates": [
          78.4904,
          17.4325
        ]
      }
    },
    {
      "type": "Feature",
      "properties": {
        "id": 100,
        "name": "Schneider Dudley",
        "age": 42,
        "company": "Quantela"
      },
      "geometry": {
        "type": "Point",
        "coordinates": [
          78.5683,
          17.4644
        ]
      }
    },
    {
      "type": "Feature",
      "properties": {
        "id": 101,
        "name": "Madden Lowery",
        "age": 40,
        "company": "Quantela"
      },
      "geometry": {
        "type": "Point",
        "coordinates": [
          78.5524,
          17.4186
        ]
      }
    },
    {
      "type": "Feature",
      "properties": {
        "id": 102,
        "name": "Karla Black",
        "age": 43,
        "company": "Quantela"
      },
      "geometry": {
        "type": "Point",
        "coordinates": [
          78.5043,
          17.4373
        ]
      }
    },
    {
      "type": "Feature",
      "properties": {
        "id": 103,
        "name": "Dona Cote",
        "age": 42,
        "company": "Quantela"
      },
      "geometry": {
        "type": "Point",
        "coordinates": [
          78.5884,
          17.3959
        ]
      }
    },
    {
      "type": "Feature",
      "properties": {
        "id": 104,
        "name": "Minnie Rodriguez",
        "age": 41,
        "company": "Quantela"
      },
      "geometry": {
        "type": "Point",
        "coordinates": [
          78.5402,
          17.472
        ]
      }
    },
    {
      "type": "Feature",
      "properties": {
        "id": 105,
        "name": "Day Dotson",
        "age": 43,
        "company": "Quantela"
      },
      "geometry": {
        "type": "Point",
        "coordinates": [
          78.5243,
          17.4545
        ]
      }
    },
    {
      "type": "Feature",
      "properties": {
        "id": 106,
        "name": "Vega Montgomery",
        "age": 46,
        "company": "Quantela"
      },
      "geometry": {
        "type": "Point",
        "coordinates": [
          78.4974,
          17.4466
        ]
      }
    },
    {
      "type": "Feature",
      "properties": {
        "id": 107,
        "name": "Sargent Wade",
        "age": 50,
        "company": "Quantela"
      },
      "geometry": {
        "type": "Point",
        "coordinates": [
          78.5842,
          17.4033
        ]
      }
    },
    {
      "type": "Feature",
      "properties": {
        "id": 108,
        "name": "Valdez Lynch",
        "age": 49,
        "company": "Quantela"
      },
      "geometry": {
        "type": "Point",
        "coordinates": [
          78.576,
          17.3871
        ]
      }
    },
    {
      "type": "Feature",
      "properties": {
        "id": 109,
        "name": "Tonya Mendez",
        "age": 47,
        "company": "Quantela"
      },
      "geometry": {
        "type": "Point",
        "coordinates": [
          78.5862,
          17.4761
        ]
      }
    },
    {
      "type": "Feature",
      "properties": {
        "id": 110,
        "name": "Sonja Hanson",
        "age": 49,
        "company": "Quantela"
      },
      "geometry": {
        "type": "Point",
        "coordinates": [
          78.5342,
          17.3844
        ]
      }
    },
    {
      "type": "Feature",
      "properties": {
        "id": 111,
        "name": "Janie Moran",
        "age": 49,
        "company": "Quantela"
      },
      "geometry": {
        "type": "Point",
        "coordinates": [
          78.5299,
          17.4888
        ]
      }
    },
    {
      "type": "Feature",
      "properties": {
        "id": 112,
        "name": "Lara Holland",
        "age": 47,
        "company": "Quantela"
      },
      "geometry": {
        "type": "Point",
        "coordinates": [
          78.5262,
          17.486
        ]
      }
    },
    {
      "type": "Feature",
      "properties": {
        "id": 113,
        "name": "Stephenson Valentine",
        "age": 48,
        "company": "Quantela"
      },
      "geometry": {
        "type": "Point",
        "coordinates": [
          78.4893,
          17.489
        ]
      }
    },
    {
      "type": "Feature",
      "properties": {
        "id": 114,
        "name": "Krystal Slater",
        "age": 43,
        "company": "Quantela"
      },
      "geometry": {
        "type": "Point",
        "coordinates": [
          78.5558,
          17.4718
        ]
      }
    },
    {
      "type": "Feature",
      "properties": {
        "id": 115,
        "name": "Sparks Munoz",
        "age": 47,
        "company": "Quantela"
      },
      "geometry": {
        "type": "Point",
        "coordinates": [
          78.5738,
          17.4865
        ]
      }
    },
    {
      "type": "Feature",
      "properties": {
        "id": 116,
        "name": "Ann Grimes",
        "age": 41,
        "company": "Quantela"
      },
      "geometry": {
        "type": "Point",
        "coordinates": [
          78.569,
          17.4198
        ]
      }
    },
    {
      "type": "Feature",
      "properties": {
        "id": 117,
        "name": "Riley Murray",
        "age": 44,
        "company": "Quantela"
      },
      "geometry": {
        "type": "Point",
        "coordinates": [
          78.5566,
          17.4347
        ]
      }
    },
    {
      "type": "Feature",
      "properties": {
        "id": 118,
        "name": "Conley Becker",
        "age": 43,
        "company": "Quantela"
      },
      "geometry": {
        "type": "Point",
        "coordinates": [
          78.549,
          17.382
        ]
      }
    },
    {
      "type": "Feature",
      "properties": {
        "id": 119,
        "name": "Delgado Pennington",
        "age": 46,
        "company": "Quantela"
      },
      "geometry": {
        "type": "Point",
        "coordinates": [
          78.5757,
          17.3844
        ]
      }
    },
    {
      "type": "Feature",
      "properties": {
        "id": 120,
        "name": "Hill Hull",
        "age": 43,
        "company": "Quantela"
      },
      "geometry": {
        "type": "Point",
        "coordinates": [
          78.4859,
          17.4286
        ]
      }
    },
    {
      "type": "Feature",
      "properties": {
        "id": 121,
        "name": "Rena Decker",
        "age": 44,
        "company": "Quantela"
      },
      "geometry": {
        "type": "Point",
        "coordinates": [
          78.5509,
          17.4031
        ]
      }
    },
    {
      "type": "Feature",
      "properties": {
        "id": 122,
        "name": "Luann Hubbard",
        "age": 44,
        "company": "Quantela"
      },
      "geometry": {
        "type": "Point",
        "coordinates": [
          78.5632,
          17.4463
        ]
      }
    },
    {
      "type": "Feature",
      "properties": {
        "id": 123,
        "name": "Sloan Conley",
        "age": 42,
        "company": "Quantela"
      },
      "geometry": {
        "type": "Point",
        "coordinates": [
          78.5438,
          17.4652
        ]
      }
    },
    {
      "type": "Feature",
      "properties": {
        "id": 124,
        "name": "Holder Welch",
        "age": 40,
        "company": "Quantela"
      },
      "geometry": {
        "type": "Point",
        "coordinates": [
          78.5723,
          17.4343
        ]
      }
    },
    {
      "type": "Feature",
      "properties": {
        "id": 125,
        "name": "Sofia Short",
        "age": 49,
        "company": "Quantela"
      },
      "geometry": {
        "type": "Point",
        "coordinates": [
          78.4831,
          17.4234
        ]
      }
    },
    {
      "type": "Feature",
      "properties": {
        "id": 126,
        "name": "Donaldson Klein",
        "age": 45,
        "company": "Quantela"
      },
      "geometry": {
        "type": "Point",
        "coordinates": [
          78.4859,
          17.4169
        ]
      }
    },
    {
      "type": "Feature",
      "properties": {
        "id": 127,
        "name": "Young Benton",
        "age": 49,
        "company": "Quantela"
      },
      "geometry": {
        "type": "Point",
        "coordinates": [
          78.5042,
          17.4469
        ]
      }
    },
    {
      "type": "Feature",
      "properties": {
        "id": 128,
        "name": "Smith Mcmillan",
        "age": 43,
        "company": "Quantela"
      },
      "geometry": {
        "type": "Point",
        "coordinates": [
          78.533,
          17.4253
        ]
      }
    },
    {
      "type": "Feature",
      "properties": {
        "id": 129,
        "name": "Charity Stafford",
        "age": 48,
        "company": "Quantela"
      },
      "geometry": {
        "type": "Point",
        "coordinates": [
          78.5308,
          17.4349
        ]
      }
    },
    {
      "type": "Feature",
      "properties": {
        "id": 130,
        "name": "Atkinson Gutierrez",
        "age": 42,
        "company": "Quantela"
      },
      "geometry": {
        "type": "Point",
        "coordinates": [
          78.5698,
          17.4
        ]
      }
    },
    {
      "type": "Feature",
      "properties": {
        "id": 131,
        "name": "Morton Hooper",
        "age": 45,
        "company": "Quantela"
      },
      "geometry": {
        "type": "Point",
        "coordinates": [
          78.5596,
          17.4065
        ]
      }
    },
    {
      "type": "Feature",
      "properties": {
        "id": 132,
        "name": "Cathryn Sanchez",
        "age": 50,
        "company": "Quantela"
      },
      "geometry": {
        "type": "Point",
        "coordinates": [
          78.5311,
          17.4159
        ]
      }
    },
    {
      "type": "Feature",
      "properties": {
        "id": 133,
        "name": "Travis Jenkins",
        "age": 49,
        "company": "Quantela"
      },
      "geometry": {
        "type": "Point",
        "coordinates": [
          78.5574,
          17.3993
        ]
      }
    },
    {
      "type": "Feature",
      "properties": {
        "id": 134,
        "name": "Rogers Prince",
        "age": 45,
        "company": "Quantela"
      },
      "geometry": {
        "type": "Point",
        "coordinates": [
          78.5095,
          17.4194
        ]
      }
    },
    {
      "type": "Feature",
      "properties": {
        "id": 135,
        "name": "Leonor Wilkins",
        "age": 42,
        "company": "Quantela"
      },
      "geometry": {
        "type": "Point",
        "coordinates": [
          78.481,
          17.4681
        ]
      }
    },
    {
      "type": "Feature",
      "properties": {
        "id": 136,
        "name": "Flynn Middleton",
        "age": 49,
        "company": "Quantela"
      },
      "geometry": {
        "type": "Point",
        "coordinates": [
          78.5502,
          17.3825
        ]
      }
    },
    {
      "type": "Feature",
      "properties": {
        "id": 137,
        "name": "Blevins Park",
        "age": 41,
        "company": "Quantela"
      },
      "geometry": {
        "type": "Point",
        "coordinates": [
          78.543,
          17.4472
        ]
      }
    },
    {
      "type": "Feature",
      "properties": {
        "id": 138,
        "name": "Reyes Garrison",
        "age": 41,
        "company": "Quantela"
      },
      "geometry": {
        "type": "Point",
        "coordinates": [
          78.5363,
          17.4237
        ]
      }
    },
    {
      "type": "Feature",
      "properties": {
        "id": 139,
        "name": "Phoebe Zamora",
        "age": 49,
        "company": "Quantela"
      },
      "geometry": {
        "type": "Point",
        "coordinates": [
          78.5895,
          17.4483
        ]
      }
    },
    {
      "type": "Feature",
      "properties": {
        "id": 140,
        "name": "Candice Jefferson",
        "age": 50,
        "company": "Quantela"
      },
      "geometry": {
        "type": "Point",
        "coordinates": [
          78.5564,
          17.4094
        ]
      }
    },
    {
      "type": "Feature",
      "properties": {
        "id": 141,
        "name": "Cassie Ferrell",
        "age": 46,
        "company": "Quantela"
      },
      "geometry": {
        "type": "Point",
        "coordinates": [
          78.489,
          17.4416
        ]
      }
    },
    {
      "type": "Feature",
      "properties": {
        "id": 142,
        "name": "Staci Schultz",
        "age": 48,
        "company": "Quantela"
      },
      "geometry": {
        "type": "Point",
        "coordinates": [
          78.5451,
          17.4151
        ]
      }
    },
    {
      "type": "Feature",
      "properties": {
        "id": 143,
        "name": "Aline Bishop",
        "age": 45,
        "company": "Quantela"
      },
      "geometry": {
        "type": "Point",
        "coordinates": [
          78.5655,
          17.4702
        ]
      }
    },
    {
      "type": "Feature",
      "properties": {
        "id": 144,
        "name": "Nannie Waters",
        "age": 41,
        "company": "Quantela"
      },
      "geometry": {
        "type": "Point",
        "coordinates": [
          78.5814,
          17.4119
        ]
      }
    },
    {
      "type": "Feature",
      "properties": {
        "id": 145,
        "name": "Estrada Smith",
        "age": 46,
        "company": "Quantela"
      },
      "geometry": {
        "type": "Point",
        "coordinates": [
          78.5383,
          17.4433
        ]
      }
    },
    {
      "type": "Feature",
      "properties": {
        "id": 146,
        "name": "Harriett Mcleod",
        "age": 42,
        "company": "Quantela"
      },
      "geometry": {
        "type": "Point",
        "coordinates": [
          78.5104,
          17.4295
        ]
      }
    },
    {
      "type": "Feature",
      "properties": {
        "id": 147,
        "name": "Gale Ward",
        "age": 45,
        "company": "Quantela"
      },
      "geometry": {
        "type": "Point",
        "coordinates": [
          78.5776,
          17.4013
        ]
      }
    },
    {
      "type": "Feature",
      "properties": {
        "id": 148,
        "name": "Tiffany Gallegos",
        "age": 40,
        "company": "Quantela"
      },
      "geometry": {
        "type": "Point",
        "coordinates": [
          78.5492,
          17.3935
        ]
      }
    },
    {
      "type": "Feature",
      "properties": {
        "id": 149,
        "name": "Spencer Cotton",
        "age": 44,
        "company": "Quantela"
      },
      "geometry": {
        "type": "Point",
        "coordinates": [
          78.5823,
          17.4822
        ]
      }
    },
    {
      "type": "Feature",
      "properties": {
        "id": 150,
        "name": "Gabrielle Farmer",
        "age": 44,
        "company": "Quantela"
      },
      "geometry": {
        "type": "Point",
        "coordinates": [
          78.489,
          17.3813
        ]
      }
    },
    {
      "type": "Feature",
      "properties": {
        "id": 151,
        "name": "Concepcion Weeks",
        "age": 45,
        "company": "Quantela"
      },
      "geometry": {
        "type": "Point",
        "coordinates": [
          78.5278,
          17.4367
        ]
      }
    },
    {
      "type": "Feature",
      "properties": {
        "id": 152,
        "name": "Hodges Tyson",
        "age": 44,
        "company": "Quantela"
      },
      "geometry": {
        "type": "Point",
        "coordinates": [
          78.4924,
          17.4868
        ]
      }
    },
    {
      "type": "Feature",
      "properties": {
        "id": 153,
        "name": "Nikki French",
        "age": 48,
        "company": "Quantela"
      },
      "geometry": {
        "type": "Point",
        "coordinates": [
          78.5449,
          17.4434
        ]
      }
    },
    {
      "type": "Feature",
      "properties": {
        "id": 154,
        "name": "Paige Baxter",
        "age": 47,
        "company": "Quantela"
      },
      "geometry": {
        "type": "Point",
        "coordinates": [
          78.5223,
          17.4786
        ]
      }
    },
    {
      "type": "Feature",
      "properties": {
        "id": 155,
        "name": "Magdalena Shepherd",
        "age": 46,
        "company": "Quantela"
      },
      "geometry": {
        "type": "Point",
        "coordinates": [
          78.5879,
          17.4338
        ]
      }
    },
    {
      "type": "Feature",
      "properties": {
        "id": 156,
        "name": "Campos Delaney",
        "age": 41,
        "company": "Quantela"
      },
      "geometry": {
        "type": "Point",
        "coordinates": [
          78.5086,
          17.4151
        ]
      }
    },
    {
      "type": "Feature",
      "properties": {
        "id": 157,
        "name": "Katina Townsend",
        "age": 50,
        "company": "Quantela"
      },
      "geometry": {
        "type": "Point",
        "coordinates": [
          78.5284,
          17.4574
        ]
      }
    },
    {
      "type": "Feature",
      "properties": {
        "id": 158,
        "name": "Morrow Norman",
        "age": 46,
        "company": "Quantela"
      },
      "geometry": {
        "type": "Point",
        "coordinates": [
          78.5878,
          17.4877
        ]
      }
    },
    {
      "type": "Feature",
      "properties": {
        "id": 159,
        "name": "Mclaughlin Holcomb",
        "age": 48,
        "company": "Quantela"
      },
      "geometry": {
        "type": "Point",
        "coordinates": [
          78.5195,
          17.4455
        ]
      }
    },
    {
      "type": "Feature",
      "properties": {
        "id": 160,
        "name": "Marla Hays",
        "age": 43,
        "company": "Quantela"
      },
      "geometry": {
        "type": "Point",
        "coordinates": [
          78.5414,
          17.4386
        ]
      }
    },
    {
      "type": "Feature",
      "properties": {
        "id": 161,
        "name": "Martha English",
        "age": 42,
        "company": "Quantela"
      },
      "geometry": {
        "type": "Point",
        "coordinates": [
          78.5826,
          17.4658
        ]
      }
    },
    {
      "type": "Feature",
      "properties": {
        "id": 162,
        "name": "Booker Parsons",
        "age": 40,
        "company": "Quantela"
      },
      "geometry": {
        "type": "Point",
        "coordinates": [
          78.4971,
          17.4123
        ]
      }
    },
    {
      "type": "Feature",
      "properties": {
        "id": 163,
        "name": "Jewel Vaughan",
        "age": 44,
        "company": "Quantela"
      },
      "geometry": {
        "type": "Point",
        "coordinates": [
          78.5277,
          17.4539
        ]
      }
    },
    {
      "type": "Feature",
      "properties": {
        "id": 164,
        "name": "Oconnor Caldwell",
        "age": 40,
        "company": "Quantela"
      },
      "geometry": {
        "type": "Point",
        "coordinates": [
          78.5379,
          17.4438
        ]
      }
    },
    {
      "type": "Feature",
      "properties": {
        "id": 165,
        "name": "Lindsey Bates",
        "age": 48,
        "company": "Quantela"
      },
      "geometry": {
        "type": "Point",
        "coordinates": [
          78.493,
          17.4231
        ]
      }
    },
    {
      "type": "Feature",
      "properties": {
        "id": 166,
        "name": "Silvia Snider",
        "age": 41,
        "company": "Quantela"
      },
      "geometry": {
        "type": "Point",
        "coordinates": [
          78.4984,
          17.4723
        ]
      }
    },
    {
      "type": "Feature",
      "properties": {
        "id": 167,
        "name": "Lorrie Jacobson",
        "age": 49,
        "company": "Quantela"
      },
      "geometry": {
        "type": "Point",
        "coordinates": [
          78.5313,
          17.4031
        ]
      }
    },
    {
      "type": "Feature",
      "properties": {
        "id": 168,
        "name": "Dean Sosa",
        "age": 41,
        "company": "Quantela"
      },
      "geometry": {
        "type": "Point",
        "coordinates": [
          78.4977,
          17.4537
        ]
      }
    },
    {
      "type": "Feature",
      "properties": {
        "id": 169,
        "name": "Shirley Warren",
        "age": 47,
        "company": "Quantela"
      },
      "geometry": {
        "type": "Point",
        "coordinates": [
          78.5054,
          17.4253
        ]
      }
    },
    {
      "type": "Feature",
      "properties": {
        "id": 170,
        "name": "Walton Duncan",
        "age": 42,
        "company": "Quantela"
      },
      "geometry": {
        "type": "Point",
        "coordinates": [
          78.5292,
          17.4167
        ]
      }
    },
    {
      "type": "Feature",
      "properties": {
        "id": 171,
        "name": "Garrett Gilmore",
        "age": 49,
        "company": "Quantela"
      },
      "geometry": {
        "type": "Point",
        "coordinates": [
          78.5612,
          17.3929
        ]
      }
    },
    {
      "type": "Feature",
      "properties": {
        "id": 172,
        "name": "Reva Hawkins",
        "age": 41,
        "company": "Quantela"
      },
      "geometry": {
        "type": "Point",
        "coordinates": [
          78.481,
          17.4366
        ]
      }
    },
    {
      "type": "Feature",
      "properties": {
        "id": 173,
        "name": "Carey Ortega",
        "age": 49,
        "company": "Quantela"
      },
      "geometry": {
        "type": "Point",
        "coordinates": [
          78.5704,
          17.4626
        ]
      }
    },
    {
      "type": "Feature",
      "properties": {
        "id": 174,
        "name": "Rivas Hansen",
        "age": 42,
        "company": "Quantela"
      },
      "geometry": {
        "type": "Point",
        "coordinates": [
          78.4965,
          17.4106
        ]
      }
    },
    {
      "type": "Feature",
      "properties": {
        "id": 175,
        "name": "Joann Obrien",
        "age": 45,
        "company": "Quantela"
      },
      "geometry": {
        "type": "Point",
        "coordinates": [
          78.5899,
          17.3896
        ]
      }
    },
    {
      "type": "Feature",
      "properties": {
        "id": 176,
        "name": "Chris Thornton",
        "age": 42,
        "company": "Quantela"
      },
      "geometry": {
        "type": "Point",
        "coordinates": [
          78.4921,
          17.4808
        ]
      }
    },
    {
      "type": "Feature",
      "properties": {
        "id": 177,
        "name": "Romero Dorsey",
        "age": 50,
        "company": "Quantela"
      },
      "geometry": {
        "type": "Point",
        "coordinates": [
          78.4829,
          17.3831
        ]
      }
    },
    {
      "type": "Feature",
      "properties": {
        "id": 178,
        "name": "Elliott Pruitt",
        "age": 43,
        "company": "Quantela"
      },
      "geometry": {
        "type": "Point",
        "coordinates": [
          78.5455,
          17.4187
        ]
      }
    },
    {
      "type": "Feature",
      "properties": {
        "id": 179,
        "name": "Georgia Harding",
        "age": 45,
        "company": "Quantela"
      },
      "geometry": {
        "type": "Point",
        "coordinates": [
          78.4811,
          17.473
        ]
      }
    },
    {
      "type": "Feature",
      "properties": {
        "id": 180,
        "name": "Hughes Padilla",
        "age": 43,
        "company": "Quantela"
      },
      "geometry": {
        "type": "Point",
        "coordinates": [
          78.5355,
          17.4218
        ]
      }
    },
    {
      "type": "Feature",
      "properties": {
        "id": 181,
        "name": "Leach Kramer",
        "age": 49,
        "company": "Quantela"
      },
      "geometry": {
        "type": "Point",
        "coordinates": [
          78.575,
          17.397
        ]
      }
    },
    {
      "type": "Feature",
      "properties": {
        "id": 182,
        "name": "Holland Conner",
        "age": 46,
        "company": "Quantela"
      },
      "geometry": {
        "type": "Point",
        "coordinates": [
          78.4876,
          17.3852
        ]
      }
    },
    {
      "type": "Feature",
      "properties": {
        "id": 183,
        "name": "Moses Reed",
        "age": 50,
        "company": "Quantela"
      },
      "geometry": {
        "type": "Point",
        "coordinates": [
          78.5605,
          17.4201
        ]
      }
    },
    {
      "type": "Feature",
      "properties": {
        "id": 184,
        "name": "Beard Mack",
        "age": 41,
        "company": "Quantela"
      },
      "geometry": {
        "type": "Point",
        "coordinates": [
          78.5873,
          17.3851
        ]
      }
    },
    {
      "type": "Feature",
      "properties": {
        "id": 185,
        "name": "Greta Macias",
        "age": 46,
        "company": "Quantela"
      },
      "geometry": {
        "type": "Point",
        "coordinates": [
          78.5808,
          17.4804
        ]
      }
    },
    {
      "type": "Feature",
      "properties": {
        "id": 186,
        "name": "Ester Dillard",
        "age": 40,
        "company": "Quantela"
      },
      "geometry": {
        "type": "Point",
        "coordinates": [
          78.5031,
          17.4018
        ]
      }
    },
    {
      "type": "Feature",
      "properties": {
        "id": 187,
        "name": "Clarice Christensen",
        "age": 49,
        "company": "Quantela"
      },
      "geometry": {
        "type": "Point",
        "coordinates": [
          78.4874,
          17.4586
        ]
      }
    },
    {
      "type": "Feature",
      "properties": {
        "id": 188,
        "name": "Blair Ross",
        "age": 48,
        "company": "Quantela"
      },
      "geometry": {
        "type": "Point",
        "coordinates": [
          78.5468,
          17.4457
        ]
      }
    },
    {
      "type": "Feature",
      "properties": {
        "id": 189,
        "name": "Margery Holloway",
        "age": 43,
        "company": "Quantela"
      },
      "geometry": {
        "type": "Point",
        "coordinates": [
          78.4802,
          17.3811
        ]
      }
    },
    {
      "type": "Feature",
      "properties": {
        "id": 190,
        "name": "Michael Knapp",
        "age": 46,
        "company": "Quantela"
      },
      "geometry": {
        "type": "Point",
        "coordinates": [
          78.5791,
          17.488
        ]
      }
    },
    {
      "type": "Feature",
      "properties": {
        "id": 191,
        "name": "Cain Bush",
        "age": 40,
        "company": "Quantela"
      },
      "geometry": {
        "type": "Point",
        "coordinates": [
          78.4943,
          17.4417
        ]
      }
    },
    {
      "type": "Feature",
      "properties": {
        "id": 192,
        "name": "Reba Berg",
        "age": 47,
        "company": "Quantela"
      },
      "geometry": {
        "type": "Point",
        "coordinates": [
          78.5354,
          17.4222
        ]
      }
    },
    {
      "type": "Feature",
      "properties": {
        "id": 193,
        "name": "Klein Meyer",
        "age": 40,
        "company": "Quantela"
      },
      "geometry": {
        "type": "Point",
        "coordinates": [
          78.4928,
          17.47
        ]
      }
    },
    {
      "type": "Feature",
      "properties": {
        "id": 194,
        "name": "Selma Best",
        "age": 44,
        "company": "Quantela"
      },
      "geometry": {
        "type": "Point",
        "coordinates": [
          78.5501,
          17.4875
        ]
      }
    },
    {
      "type": "Feature",
      "properties": {
        "id": 195,
        "name": "Glenda Taylor",
        "age": 47,
        "company": "Quantela"
      },
      "geometry": {
        "type": "Point",
        "coordinates": [
          78.552,
          17.459
        ]
      }
    },
    {
      "type": "Feature",
      "properties": {
        "id": 196,
        "name": "Nora Mccormick",
        "age": 42,
        "company": "Quantela"
      },
      "geometry": {
        "type": "Point",
        "coordinates": [
          78.5144,
          17.4733
        ]
      }
    },
    {
      "type": "Feature",
      "properties": {
        "id": 197,
        "name": "Faye Burke",
        "age": 46,
        "company": "Quantela"
      },
      "geometry": {
        "type": "Point",
        "coordinates": [
          78.5279,
          17.4355
        ]
      }
    },
    {
      "type": "Feature",
      "properties": {
        "id": 198,
        "name": "Billie Hodge",
        "age": 40,
        "company": "Quantela"
      },
      "geometry": {
        "type": "Point",
        "coordinates": [
          78.4844,
          17.469
        ]
      }
    },
    {
      "type": "Feature",
      "properties": {
        "id": 199,
        "name": "Sanchez Salazar",
        "age": 45,
        "company": "Quantela"
      },
      "geometry": {
        "type": "Point",
        "coordinates": [
          78.4996,
          17.4503
        ]
      }
    }
  ]
}